[
  {
    "name": "Jinxing Residential Community for Government Employees in Yuelu District",
    "location": "112.937966,28.221552",
    "formatted_address": "No. 99 Shuangtang Road, Yuelu District, Changsha City, Hunan Province",
    "city": "Changsha City",
    "district": "Yuelu District",
    "streetName": "Shuangtang Road",
    "streetNumber": "Number 99",
    "description": "Feng Haoran's permanent residence is located near Lushan South Road in Yuelu District, serving as his daily living and resting place."
  },
  {
    "name": "Hunan Broadcasting Center Office Building",
    "location": "113.046406,28.237515",
    "formatted_address": "Kaifu District, Changsha City, Hunan Province",
    "city": "Changsha City",
    "district": "Kaifu District",
    "streetName": [],
    "streetNumber": [],
    "description": "Feng Haoran's regular workplace is located near Furong Middle Road in Kaifu District, which serves as the office of Huatai Securities Co., Ltd."
  },
  {
    "name": "Yuelu Mountain Scenic Area",
    "location": "112.936606,28.180729",
    "formatted_address": "No. 58 Denggao Road, Yuelu District, Changsha City, Hunan Province",
    "city": "Changsha City",
    "district": "Yuelu District",
    "streetName": "Denggao Road",
    "streetNumber": "No. 58",
    "description": "The morning jogging spot that Feng Haoran frequents is located in Yuelu District and is used for daily physical exercise and leisure activities."
  },
  {
    "name": "Yidan Cafe",
    "location": "113.039976,28.208764",
    "formatted_address": "Liuyang River Avenue, Furong District, Changsha City, Hunan Province",
    "city": "Changsha City",
    "district": "Furong District",
    "streetName": "Liuyanghe Avenue",
    "streetNumber": [],
    "description": "The hand-drip coffee shop that Feng Haoran frequents is located near Jiefang West Road in Furong District, used for tasting coffee and social activities."
  },
  {
    "name": "Robbie's Snack Shop",
    "location": "112.931476,28.217875",
    "formatted_address": "Shuangtang Road, Yuelu District, Changsha City, Hunan Province",
    "city": "Changsha City",
    "district": "Yuelu District",
    "streetName": "Shuangtang Road",
    "streetNumber": [],
    "description": "The supermarket near No. 99 Shuangtang Road, Yuelu District, Changsha City, used for daily shopping."
  },
  {
    "name": "Xihu Jianxin Resettlement Community Hunan Cuisine Restaurant",
    "location": "112.937049,28.220841",
    "formatted_address": "Yinshuang Road, Yuelu District, Changsha City, Hunan Province",
    "city": "Changsha City",
    "district": "Yuelu District",
    "streetName": "Yinshuang Road",
    "streetNumber": [],
    "description": "The Hunan cuisine restaurant near the residence, as the person prefers Hunan cuisine."
  },
  {
    "name": "Changsha Wangfujing Shopping Center Fitness Center",
    "location": "112.933775,28.218839",
    "formatted_address": "Yuelu District, Changsha City, Hunan Province",
    "city": "Changsha City",
    "district": "Yuelu District",
    "streetName": [],
    "streetNumber": [],
    "description": "The park near the residential area is suitable for morning jogging and leisure activities."
  },
  {
    "name": "Wangfujing Office Building Yoga and Pilates Studio",
    "location": "112.933780,28.218862",
    "formatted_address": "Room 901, Office Building, Hexi Wangfujing, Jinxing Middle Road",
    "city": "",
    "district": "",
    "streetName": "",
    "streetNumber": "",
    "description": "A gym near the residence for daily exercise"
  },
  {
    "name": "St. Jofis Cafe",
    "location": "113.045262,28.239221",
    "formatted_address": "Shengjuefeisi Home 1st Floor",
    "city": "",
    "district": "",
    "streetName": "",
    "streetNumber": "",
    "description": "A caf√© near the Hunan Radio and Television Center building, used for breaks during work or business negotiations."
  },
  {
    "name": "Media Road Fast Food Restaurant",
    "location": "113.046492,28.237687",
    "formatted_address": "Chuanmei Road, Kaifu District, Changsha City, Hunan Province",
    "city": "Changsha City",
    "district": "Kaifu District",
    "streetName": "Media Road",
    "streetNumber": [],
    "description": "Fast food restaurants near the workplace, used for weekday lunches."
  },
  {
    "name": "Guixinyuan Residential Community Convenience Store",
    "location": "113.044387,28.239790",
    "formatted_address": "Kaifu District, Changsha City, Hunan Province",
    "city": "Changsha City",
    "district": "Kaifu District",
    "streetName": [],
    "streetNumber": [],
    "description": "Convenience stores near the workplace, used for purchasing daily necessities or snacks."
  },
  {
    "name": "Golden Eagle Road Lanzhou Noodle Restaurant",
    "location": "113.040558,28.243161",
    "formatted_address": "Jinying Road, Kaifu District, Changsha City, Hunan Province",
    "city": "Changsha City",
    "district": "Kaifu District",
    "streetName": "Golden Eagle Road",
    "streetNumber": [],
    "description": "A Hunan cuisine restaurant near the workplace, suitable for dining with colleagues or clients."
  },
  {
    "name": "Baigezui Subway Station Fitness Center",
    "location": "112.929679,28.224207",
    "formatted_address": "Yuelu District, Changsha City, Hunan Province",
    "city": "Changsha City",
    "district": "Yuelu District",
    "streetName": [],
    "streetNumber": [],
    "description": "The running track near Yuelu Mountain Scenic Area is suitable for morning runs."
  },
  {
    "name": "Xiaoka Coffee",
    "location": "113.034988,28.201898",
    "formatted_address": "Furong District, Changsha City, Hunan Province[][][]",
    "city": "Changsha City",
    "district": "Furong District",
    "streetName": [],
    "streetNumber": [],
    "description": "Other cafes near Yidan Coffee (Liuyanghe Branch) for tasting pour-over coffee"
  },
  {
    "name": "Vanke West Street Garden Japanese Ramen Restaurant",
    "location": "113.039327,28.183976",
    "formatted_address": "Furong District, Changsha City, Hunan Province, China",
    "city": "Changsha City",
    "district": "Furong District",
    "streetName": [],
    "streetNumber": [],
    "description": "Japanese ramen restaurants near Yidan Coffee (Liuyanghe Branch), as the person enjoys Japanese ramen."
  },
  {
    "name": "Bohai Bank ATM at Xiangteng City Plaza",
    "location": "112.935745,28.219584",
    "formatted_address": "No. 438, Jinxing Middle Road, Yuelu District, Changsha City, Hunan Province",
    "city": "Changsha City",
    "district": "Yuelu District",
    "streetName": "Jinxing Middle Road",
    "streetNumber": "No. 438",
    "description": "A bank near the place of residence, used for personal financial management or business transactions."
  },
  {
    "name": "Chengxingyuan Stationery Store",
    "location": "112.949874,28.149752",
    "formatted_address": "North Gate West[], Yuelu District, Changsha City, Hunan Province",
    "city": "Changsha City",
    "district": "Yuelu District",
    "streetName": "North Gate West",
    "streetNumber": [],
    "description": "Bookstores near the residence for purchasing investment or photography-related books."
  },
  {
    "name": "Adidas Store, Wangfujing Shopping Center, Changsha",
    "location": "112.933775,28.218839",
    "formatted_address": "Yuelu District, Changsha City, Hunan Province, China",
    "city": "Changsha City",
    "district": "Yuelu District",
    "streetName": [],
    "streetNumber": [],
    "description": "Outdoor equipment store near the residence for purchasing camping gear"
  },
  {
    "name": "Junhao Garden South Ground Parking Lot",
    "location": "113.046406,28.237515",
    "formatted_address": "Kaifu District, Changsha City, Hunan Province",
    "city": "Changsha City",
    "district": "Kaifu District",
    "streetName": [],
    "streetNumber": [],
    "description": "Parking lot near the workplace for commuter parking."
  },
  {
    "name": "Legal Services Building Office Tower",
    "location": "113.024628,28.212294",
    "formatted_address": "No. 8, Ziwei Road, Furong District, Changsha City, Hunan Province",
    "city": "Changsha City",
    "district": "Furong District",
    "streetName": "Zihui Road",
    "streetNumber": "Number 8",
    "description": "Meeting rooms near the workplace for meetings with clients or teams."
  },
  {
    "name": "Evergrande Yayuan Fitness Center",
    "location": "113.045541,28.242708",
    "formatted_address": "Kaifu District, Changsha City, Hunan Province",
    "city": "Changsha City",
    "district": "Kaifu District",
    "streetName": [],
    "streetNumber": [],
    "description": "A fitness center near the workplace, used for exercising during lunch breaks or after work."
  },
  {
    "name": "Peach Lake Cultural and Creative Park Convenience Store",
    "location": "112.949935,28.183355",
    "formatted_address": "New Joy Mart, Building A1, Taozihu Cultural and Creative Park",
    "city": "",
    "district": "",
    "streetName": "",
    "streetNumber": "",
    "description": "Convenience stores near the Yuelu Mountain Scenic Area for purchasing water or snacks."
  }
]